City_ID,City,Country,Date,Lat,Lng,Max Temp,Humidity,Cloudiness,Wind Speed,Current Description
0,Hambantota,LK,2021-06-03 22:05:45,6.1241,81.1185,79.14,100,40,15.52,scattered clouds
1,Punta Arenas,CL,2021-06-03 22:05:46,-53.15,-70.9167,35.11,93,100,11.99,light rain
2,Port Keats,AU,2021-06-03 22:05:48,-14.25,129.55,74.53,64,92,7.61,overcast clouds
3,Nikolskoye,RU,2021-06-03 22:05:50,59.7035,30.7861,57.09,82,20,4.72,few clouds
4,Vardo,NO,2021-06-03 22:05:51,70.3705,31.1107,51.03,63,20,9.95,few clouds
5,Thompson,CA,2021-06-03 22:04:19,55.7435,-97.8558,65.71,34,100,6.17,overcast clouds
6,Chokurdakh,RU,2021-06-03 22:05:54,70.6333,147.9167,57.34,58,100,2.46,overcast clouds
7,Caldwell,US,2021-06-03 22:04:44,43.6629,-116.6874,102.52,18,1,1.01,clear sky
8,Jamestown,US,2021-06-03 22:02:51,42.097,-79.2353,69.12,95,75,5.75,broken clouds
9,Clyde River,CA,2021-06-03 22:05:58,70.4692,-68.5914,31.59,94,100,9.82,overcast clouds
10,Castro,BR,2021-06-03 22:06:00,-24.7911,-50.0119,61.11,87,32,1.16,scattered clouds
11,Hilo,US,2021-06-03 22:05:06,19.7297,-155.09,81.81,80,14,5.01,few clouds
12,Poplar Bluff,US,2021-06-03 22:06:02,36.757,-90.3929,73.87,76,20,0.0,few clouds
13,Arraial Do Cabo,BR,2021-06-03 22:01:16,-22.9661,-42.0278,74.32,83,0,6.67,clear sky
14,Lompoc,US,2021-06-03 22:06:07,34.6391,-120.4579,86.14,63,13,3.0,few clouds
15,Pevek,RU,2021-06-03 22:06:08,69.7008,170.3133,34.75,74,54,2.21,broken clouds
16,Georgetown,MY,2021-06-03 22:02:07,5.4112,100.3354,80.89,86,20,3.4,few clouds
17,Najran,SA,2021-06-03 22:05:12,17.4924,44.1277,78.33,16,72,3.85,broken clouds
18,Chibombo,ZM,2021-06-03 22:06:12,-14.6569,28.0706,57.74,55,12,3.62,few clouds
19,Bilibino,RU,2021-06-03 22:06:13,68.0546,166.4372,57.78,34,12,1.7,few clouds
20,Bethel,US,2021-06-03 22:05:00,41.3712,-73.414,73.49,84,75,6.91,broken clouds
21,Kavaratti,IN,2021-06-03 22:06:16,10.5669,72.642,83.86,75,100,16.46,overcast clouds
22,Port Alfred,ZA,2021-06-03 22:06:17,-33.5906,26.891,56.59,64,56,1.95,broken clouds
23,Ribeira Grande,PT,2021-06-03 22:04:27,38.5167,-28.7,62.4,67,44,9.46,scattered clouds
24,Abu Samrah,SY,2021-06-03 22:06:19,35.3029,37.1841,64.24,65,0,7.36,clear sky
25,Fortuna,US,2021-06-03 22:06:21,40.5982,-124.1573,93.47,88,90,13.8,overcast clouds
26,Bengkulu,ID,2021-06-03 22:04:58,-3.8004,102.2655,76.55,90,91,2.84,overcast clouds
27,Bredasdorp,ZA,2021-06-03 22:06:24,-34.5322,20.0403,55.27,79,100,4.65,overcast clouds
28,Vagur,FO,2021-06-03 22:06:26,61.4732,-6.8119,48.97,88,35,18.34,scattered clouds
29,Yellowknife,CA,2021-06-03 22:06:27,62.456,-114.3525,51.84,84,100,9.62,light rain
30,Kapaa,US,2021-06-03 22:06:28,22.0752,-159.319,82.72,74,75,1.99,light rain
31,Gunjur,GM,2021-06-03 22:06:30,13.2019,-16.7339,75.27,78,0,16.2,clear sky
32,New Norfolk,AU,2021-06-03 22:06:31,-42.7826,147.0587,47.7,63,91,4.0,overcast clouds
33,Vaini,TO,2021-06-03 22:06:32,-21.2,-175.2,77.16,78,20,4.61,few clouds
34,Zbarazh,UA,2021-06-03 22:06:34,49.6636,25.7762,50.7,81,51,5.26,broken clouds
35,Ribeira Brava,PT,2021-06-03 22:06:35,32.65,-17.0667,65.03,51,55,8.08,broken clouds
36,Cape Town,ZA,2021-06-03 22:06:36,-33.9258,18.4232,55.11,92,96,2.33,overcast clouds
37,Lebu,CL,2021-06-03 22:06:38,-37.6167,-73.65,56.39,97,100,4.85,overcast clouds
38,Saint-Philippe,RE,2021-06-03 22:06:39,-21.3585,55.7679,71.15,74,15,11.7,few clouds
39,Madaoua,NE,2021-06-03 22:06:40,14.073,5.96,93.02,22,7,5.08,clear sky
40,Karawang,ID,2021-06-03 22:06:42,-6.3042,107.3079,82.53,95,90,4.83,overcast clouds
41,Caranavi,BO,2021-06-03 22:06:43,-15.8167,-67.55,64.98,94,97,2.64,overcast clouds
42,Dakar,SN,2021-06-03 22:04:12,14.6937,-17.4441,76.08,82,65,14.94,broken clouds
43,Klaksvik,FO,2021-06-03 22:06:46,62.2266,-6.589,50.92,93,85,17.49,overcast clouds
44,Daund,IN,2021-06-03 22:06:47,18.4667,74.6,80.01,71,78,5.68,broken clouds
45,Dikson,RU,2021-06-03 22:06:48,73.5069,80.5464,30.18,98,98,13.78,snow
46,Summerland,CA,2021-06-03 22:06:50,49.5998,-119.6691,87.08,24,86,10.33,overcast clouds
47,Alice Springs,AU,2021-06-03 22:06:32,-23.7,133.8833,53.15,82,90,8.41,overcast clouds
48,Butaritari,KI,2021-06-03 22:06:53,3.0707,172.7902,83.07,76,92,12.21,overcast clouds
49,Sao Filipe,CV,2021-06-03 22:06:54,14.8961,-24.4956,74.41,76,8,7.16,clear sky
50,Ilulissat,GL,2021-06-03 22:06:55,69.2167,-51.1,39.22,81,89,11.5,overcast clouds
51,Teya,RU,2021-06-03 22:06:57,60.3778,92.6267,43.88,78,99,3.2,overcast clouds
52,Qasigiannguit,GL,2021-06-03 22:06:58,68.8193,-51.1922,39.45,92,93,5.57,overcast clouds
53,Mataura,NZ,2021-06-03 22:07:00,-46.1927,168.8643,49.48,91,98,4.07,overcast clouds
54,Shirokiy,RU,2021-06-03 22:07:02,49.758,129.523,50.54,95,90,9.75,overcast clouds
55,Kenai,US,2021-06-03 22:07:04,60.5544,-151.2583,61.03,54,40,10.36,scattered clouds
56,Saint George,US,2021-06-03 22:07:05,37.1041,-113.5841,106.27,11,1,7.0,clear sky
57,Kawakawa,NZ,2021-06-03 22:07:06,-35.3833,174.0667,58.14,69,95,0.98,overcast clouds
58,Rabo De Peixe,PT,2021-06-03 22:07:08,37.8,-25.5833,62.11,72,20,5.21,few clouds
59,Busselton,AU,2021-06-03 22:07:09,-33.65,115.3333,49.08,83,11,6.06,few clouds
60,Kieta,PG,2021-06-03 22:07:10,-6.2167,155.6333,82.08,77,100,2.21,overcast clouds
61,Tabuk,PH,2021-06-03 22:07:12,17.4189,121.4443,77.83,77,56,2.46,broken clouds
62,Ushuaia,AR,2021-06-03 22:05:13,-54.8,-68.3,24.33,93,10,5.55,clear sky
63,Rikitea,PF,2021-06-03 22:06:17,-23.1203,-134.9692,72.57,65,89,15.86,overcast clouds
64,Saskylakh,RU,2021-06-03 22:07:16,71.9167,114.0833,33.8,100,100,10.13,light rain
65,Qaanaaq,GL,2021-06-03 22:07:18,77.484,-69.3632,28.71,83,28,2.91,scattered clouds
66,Irbeyskoye,RU,2021-06-03 22:07:19,55.6428,95.4522,59.99,87,84,8.79,light rain
67,Luderitz,NA,2021-06-03 22:07:20,-26.6481,15.1594,69.21,31,0,19.84,clear sky
68,Cockburn Town,TC,2021-06-03 22:07:22,21.4612,-71.1419,79.83,80,74,18.84,broken clouds
69,Kirakira,SB,2021-06-03 22:07:25,-10.4544,161.9205,80.24,87,100,7.58,overcast clouds
70,Gull Lake,CA,2021-06-03 22:07:27,50.1001,-108.4847,91.78,22,0,15.95,clear sky
71,Saint-Denis,FR,2021-06-03 22:07:28,48.9167,2.3333,68.14,86,0,3.44,clear sky
72,Dunedin,NZ,2021-06-03 22:07:30,-45.8742,170.5036,48.79,81,100,1.99,overcast clouds
73,Hermanus,ZA,2021-06-03 22:07:31,-34.4187,19.2345,55.8,76,100,9.48,overcast clouds
74,Diffa,NE,2021-06-03 22:07:32,13.3154,12.6113,91.8,18,90,5.64,overcast clouds
75,Otradnoye,RU,2021-06-03 22:07:34,59.7775,30.8181,59.05,81,15,4.7,few clouds
76,Kahului,US,2021-06-03 22:07:35,20.8947,-156.47,84.22,73,40,19.57,scattered clouds
77,Camana,PE,2021-06-03 22:07:36,-16.6228,-72.7111,65.19,78,95,2.95,overcast clouds
78,Ancud,CL,2021-06-03 22:07:38,-41.8697,-73.8203,51.42,90,100,10.6,light rain
79,Nemuro,JP,2021-06-03 22:07:39,43.3236,145.575,51.4,96,100,18.41,moderate rain
80,Lagoa,PT,2021-06-03 22:05:10,39.05,-27.9833,61.39,70,19,13.47,few clouds
81,Batemans Bay,AU,2021-06-03 22:07:42,-35.7167,150.1833,54.91,91,51,4.74,broken clouds
82,Nacala,MZ,2021-06-03 22:07:43,-14.5428,40.6728,71.44,85,7,1.45,clear sky
83,Santa Rosa,PH,2021-06-03 22:07:44,14.3122,121.1114,81.86,85,98,2.93,overcast clouds
84,Turgenevo,RU,2021-06-03 22:07:46,54.8455,46.3297,51.1,70,7,13.49,clear sky
85,Torbay,CA,2021-06-03 22:05:28,47.6666,-52.7314,57.63,68,71,7.23,broken clouds
86,Prince Rupert,CA,2021-06-03 22:07:48,54.3161,-130.3201,51.89,82,90,6.91,overcast clouds
87,San Patricio,US,2021-06-03 22:07:50,28.017,-97.5169,82.27,74,96,9.89,moderate rain
88,Upernavik,GL,2021-06-03 22:07:51,72.7868,-56.1549,35.04,69,10,2.75,clear sky
89,Khatanga,RU,2021-06-03 22:05:16,71.9667,102.5,32.16,89,100,5.84,overcast clouds
90,Udachnyy,RU,2021-06-03 22:06:07,66.4167,112.4,53.29,60,100,2.44,overcast clouds
91,Carnarvon,AU,2021-06-03 22:07:56,-24.8667,113.6333,51.87,93,1,10.36,clear sky
92,Albany,US,2021-06-03 22:05:39,42.6001,-73.9662,72.73,79,96,6.42,overcast clouds
93,Siena,IT,2021-06-03 22:07:58,43.2167,11.4,65.93,72,6,1.57,clear sky
94,Vila Do Maio,CV,2021-06-03 22:07:59,15.1333,-23.2167,74.19,84,17,17.45,few clouds
95,Borovichi,RU,2021-06-03 22:08:01,58.3878,33.9155,50.13,84,59,5.03,broken clouds
96,Tuktoyaktuk,CA,2021-06-03 22:05:01,69.4541,-133.0374,36.88,89,100,11.23,overcast clouds
97,Port Lincoln,AU,2021-06-03 22:08:03,-34.7333,135.8667,57.0,79,34,9.37,scattered clouds
98,East London,ZA,2021-06-03 22:08:05,-33.0153,27.9116,58.57,66,87,3.69,overcast clouds
99,Ponta Do Sol,PT,2021-06-03 22:08:06,32.6667,-17.1,65.03,51,49,8.1,scattered clouds
100,Longyearbyen,SJ,2021-06-03 22:08:08,78.2186,15.6401,35.44,75,75,5.75,broken clouds
101,Sur,OM,2021-06-03 22:06:10,22.5667,59.5289,91.15,45,0,11.63,clear sky
102,Tyumentsevo,RU,2021-06-03 22:08:10,53.3224,81.498,56.88,70,99,4.54,overcast clouds
103,Soyo,AO,2021-06-03 22:03:15,-6.1349,12.3689,77.29,88,54,8.57,broken clouds
104,Pacific Grove,US,2021-06-03 22:08:13,36.6177,-121.9166,91.06,77,1,5.01,clear sky
105,Adrar,MR,2021-06-03 22:08:14,20.5022,-10.0711,94.06,20,98,26.96,overcast clouds
106,Broken Hill,AU,2021-06-03 22:08:15,-31.95,141.4333,49.03,87,7,8.46,clear sky
107,Mahebourg,MU,2021-06-03 22:08:17,-20.4081,57.7,74.25,71,49,17.4,light rain
108,Hithadhoo,MV,2021-06-03 22:08:18,-0.6,73.0833,83.48,70,100,18.3,overcast clouds
109,Toktogul,KG,2021-06-03 22:08:19,41.8708,72.9402,62.8,65,0,2.35,clear sky
110,Urengoy,RU,2021-06-03 22:07:05,65.9667,78.3667,34.74,79,63,7.54,broken clouds
111,Port Elizabeth,ZA,2021-06-03 22:08:22,-33.918,25.5701,44.89,93,40,3.44,scattered clouds
112,Dhidhdhoo,MV,2021-06-03 22:08:24,6.8833,73.1,82.4,80,87,16.33,overcast clouds
113,Klyuchi,RU,2021-06-03 22:08:27,52.2667,79.1667,59.32,66,97,6.35,overcast clouds
114,Coihaique,CL,2021-06-03 22:08:28,-45.5752,-72.0662,43.41,96,92,6.82,overcast clouds
115,Pascagoula,US,2021-06-03 22:08:29,30.3658,-88.5561,83.05,80,20,8.75,few clouds
116,Srednekolymsk,RU,2021-06-03 22:08:31,67.45,153.6833,66.11,35,51,14.5,broken clouds
117,Nioro,GM,2021-06-03 22:08:32,13.35,-15.75,82.09,53,88,10.31,overcast clouds
118,Goure,NE,2021-06-03 22:08:33,13.9835,10.2704,89.8,14,10,6.51,clear sky
119,Lavrentiya,RU,2021-06-03 22:08:35,65.5833,-171.0,33.12,69,99,5.01,overcast clouds
120,Banes,CU,2021-06-03 22:08:36,20.9625,-75.7186,79.41,74,65,13.87,broken clouds
121,Camocim,BR,2021-06-03 22:08:37,-2.9022,-40.8411,79.9,77,11,12.95,few clouds
122,Imbituba,BR,2021-06-03 22:08:39,-28.24,-48.6703,62.49,87,3,4.79,clear sky
123,Muscat,OM,2021-06-03 22:04:04,23.6139,58.5922,94.1,45,1,3.87,clear sky
124,Barrow,US,2021-06-03 22:08:41,71.2906,-156.7887,33.82,75,90,17.27,overcast clouds
125,Puerto Ayora,EC,2021-06-03 22:08:42,-0.7393,-90.3518,78.76,85,43,8.99,scattered clouds
126,Vao,NC,2021-06-03 22:08:44,-22.6667,167.4833,71.78,72,56,14.94,broken clouds
127,Atar,MR,2021-06-03 22:08:45,20.5169,-13.0499,94.66,23,92,15.05,overcast clouds
128,Anadyr,RU,2021-06-03 22:08:46,64.75,177.4833,39.0,60,20,13.0,few clouds
129,Henties Bay,NA,2021-06-03 22:07:40,-22.116,14.2845,74.86,47,0,4.03,clear sky
130,Havoysund,NO,2021-06-03 22:07:48,70.9963,24.6622,50.88,78,12,15.21,few clouds
131,Chifeng,CN,2021-06-03 22:08:50,42.2683,118.9636,56.3,60,76,11.52,light rain
132,Bambous Virieux,MU,2021-06-03 22:05:24,-20.3428,57.7575,74.21,71,53,17.11,light rain
133,Manta,EC,2021-06-03 22:08:52,-0.95,-80.7333,80.38,74,75,8.05,broken clouds
134,Zarichne,UA,2021-06-03 22:08:55,51.8126,26.129,53.02,84,74,4.52,broken clouds
135,Marawi,PH,2021-06-03 22:06:09,7.9986,124.2928,67.64,93,89,2.77,overcast clouds
136,Tulum,MX,2021-06-03 22:04:49,20.2167,-87.4667,84.92,67,27,7.36,scattered clouds
137,Port-Gentil,GA,2021-06-03 22:08:58,-0.7193,8.7815,78.57,84,6,11.48,clear sky
138,Tautira,PF,2021-06-03 22:09:00,-17.7333,-149.15,84.0,83,54,16.69,light rain
139,Mosquera,CO,2021-06-03 22:09:01,4.7059,-74.2302,59.09,94,40,8.05,scattered clouds
140,Cervo,ES,2021-06-03 22:09:02,43.6702,-7.4101,50.97,76,27,2.15,scattered clouds
141,Kismayo,SO,2021-06-03 22:09:04,-0.3582,42.5454,78.51,84,75,17.0,broken clouds
142,Chernyshevskiy,RU,2021-06-03 22:09:05,63.0128,112.4714,62.89,46,94,2.57,overcast clouds
143,Bluff,NZ,2021-06-03 22:09:06,-46.6,168.3333,49.8,84,97,14.23,overcast clouds
144,Praia,CV,2021-06-03 22:09:08,14.9215,-23.5087,73.94,78,40,17.27,scattered clouds
145,Noumea,NC,2021-06-03 22:09:09,-22.2763,166.4572,71.01,99,3,3.04,clear sky
146,Sao Joao Da Barra,BR,2021-06-03 22:09:10,-21.6403,-41.0511,73.98,85,0,8.28,clear sky
147,Mogadishu,SO,2021-06-03 22:05:18,2.0371,45.3438,78.51,85,20,16.55,few clouds
148,Alihe,CN,2021-06-03 22:09:08,50.5667,123.7167,49.57,95,100,7.52,light rain
149,Atambua,ID,2021-06-03 22:09:14,-9.1061,124.8925,71.33,90,16,4.36,few clouds
150,Atuona,PF,2021-06-03 22:09:15,-9.8,-139.0333,79.3,82,48,18.43,light rain
151,Ventspils,LV,2021-06-03 22:09:17,57.3894,21.5606,53.53,87,0,0.0,clear sky
152,Virginia Beach,US,2021-06-03 22:07:44,36.8529,-75.978,73.47,94,100,1.99,moderate rain
153,Aksarka,RU,2021-06-03 22:09:19,66.5606,67.7975,34.9,69,74,9.98,broken clouds
154,Rockport,US,2021-06-03 22:05:29,28.0206,-97.0544,82.44,82,90,3.0,overcast clouds
155,Salalah,OM,2021-06-03 22:09:22,17.0151,54.0924,80.69,83,40,0.0,scattered clouds
156,Avarua,CK,2021-06-03 22:09:23,-21.2078,-159.775,82.45,69,75,10.36,broken clouds
157,Pokhara,NP,2021-06-03 22:09:24,28.2333,83.9833,72.37,72,69,4.47,broken clouds
158,Matadi,CD,2021-06-03 22:09:26,-5.8167,13.45,75.29,87,28,2.51,scattered clouds
159,Faanui,PF,2021-06-03 22:09:27,-16.4833,-151.75,80.04,78,51,9.42,light rain
160,Kodiak,US,2021-06-03 22:06:58,57.79,-152.4072,53.11,62,1,11.5,clear sky
161,Wamba,NG,2021-06-03 22:09:33,8.9333,8.6,75.15,85,99,4.07,light rain
162,Bumba,CD,2021-06-03 22:09:34,2.1833,22.4667,72.18,80,98,3.53,overcast clouds
163,Thurso,GB,2021-06-03 22:09:35,58.5927,-3.5259,52.05,86,46,12.19,scattered clouds
164,Tambacounda,SN,2021-06-03 22:09:37,13.7539,-13.7586,97.79,21,95,5.28,overcast clouds
165,Ca Mau,VN,2021-06-03 22:09:08,9.1769,105.15,79.32,90,69,3.38,broken clouds
166,Banjar,ID,2021-06-03 22:09:39,-8.19,114.9675,78.66,87,71,4.0,broken clouds
167,Port Hedland,AU,2021-06-03 22:09:12,-20.3167,118.5667,64.45,59,90,11.5,overcast clouds
168,Grindavik,IS,2021-06-03 22:09:42,63.8424,-22.4338,50.56,81,75,33.49,broken clouds
169,Hobart,AU,2021-06-03 22:09:44,-42.8794,147.3294,47.05,71,20,11.9,few clouds
170,Cherskiy,RU,2021-06-03 22:09:45,68.75,161.3,66.16,28,53,6.96,broken clouds
171,Victoria,HK,2021-06-03 22:08:43,22.2855,114.1577,86.32,89,100,4.0,overcast clouds
172,Beringovskiy,RU,2021-06-03 22:09:49,63.05,179.3167,35.35,82,80,4.23,broken clouds
173,Adre,TD,2021-06-03 22:09:50,13.4667,22.2,81.95,40,100,2.28,overcast clouds
174,Lobito,AO,2021-06-03 22:09:52,-12.3481,13.5456,74.41,86,7,4.85,clear sky
175,Ust-Nera,RU,2021-06-03 22:09:53,64.5667,143.2,57.2,38,21,4.85,few clouds
176,Manjacaze,MZ,2021-06-03 22:09:54,-24.7117,33.8828,62.11,89,98,17.18,light rain
177,Bairiki,KI,2021-06-03 22:09:57,1.3292,172.9752,86.0,74,40,9.93,scattered clouds
178,Sobolevo,RU,2021-06-03 22:09:58,54.4299,31.8996,51.84,77,19,6.82,light rain
179,Quatre Cocos,MU,2021-06-03 22:09:59,-20.2078,57.7625,74.08,72,50,16.24,light rain
180,Iqaluit,CA,2021-06-03 22:10:01,63.7506,-68.5145,32.7,69,100,11.99,overcast clouds
181,Paita,PE,2021-06-03 22:05:33,-5.0892,-81.1144,69.57,79,2,17.58,clear sky
182,Iskateley,RU,2021-06-03 22:10:06,67.6803,53.1512,42.46,68,0,8.39,clear sky
183,Khagaria,IN,2021-06-03 22:10:07,25.5,86.4833,87.73,46,2,5.48,clear sky
184,Taybad,IR,2021-06-03 22:10:08,34.74,60.7756,85.82,13,0,7.45,clear sky
185,Riyadh,SA,2021-06-03 22:08:56,24.6877,46.7219,91.45,16,0,0.0,clear sky
186,Yeppoon,AU,2021-06-03 22:10:12,-23.1333,150.7333,65.98,82,92,6.26,overcast clouds
187,Pisco,PE,2021-06-03 22:08:07,-13.7,-76.2167,66.25,72,0,10.36,clear sky
188,Two Rivers,US,2021-06-03 22:10:14,44.1539,-87.5693,88.29,56,1,5.75,clear sky
189,Souillac,MU,2021-06-03 22:10:17,-20.5167,57.5167,74.35,75,44,15.41,light rain
190,Parrita,CR,2021-06-03 22:10:18,9.5201,-84.3225,87.57,80,95,2.55,overcast clouds
191,Umm Kaddadah,SD,2021-06-03 22:10:19,13.6017,26.6876,82.58,40,91,6.2,overcast clouds
192,Avera,US,2021-06-03 22:10:21,33.194,-82.5271,87.4,60,100,9.19,overcast clouds
193,Sola,VU,2021-06-03 22:08:17,-13.8833,167.55,84.87,74,75,11.5,broken clouds
194,Charters Towers,AU,2021-06-03 22:10:23,-20.1,146.2667,61.7,63,84,15.84,broken clouds
195,Broome,US,2021-06-03 22:10:25,42.2506,-75.833,71.38,88,90,5.01,overcast clouds
196,Mayor Pablo Lagerenza,PY,2021-06-03 22:10:26,-19.9309,-60.7718,84.7,38,55,6.89,broken clouds
197,Martinopolis,BR,2021-06-03 22:10:27,-22.1458,-51.1708,70.32,61,0,8.1,clear sky
198,Amapa,BR,2021-06-03 22:10:29,1.0,-52.0,73.85,98,13,2.17,heavy intensity rain
199,Jutai,BR,2021-06-03 22:10:30,-5.1833,-68.9,81.18,72,93,2.37,overcast clouds
200,Biak,ID,2021-06-03 22:08:17,-0.9131,122.8766,76.75,84,100,6.53,overcast clouds
201,Lisakovsk,KZ,2021-06-03 22:10:32,52.5369,62.4936,56.32,81,100,15.1,overcast clouds
202,Seoul,KR,2021-06-03 22:09:53,37.5683,126.9778,58.57,88,75,3.18,broken clouds
203,Auki,SB,2021-06-03 22:10:35,-8.7676,160.7034,81.03,83,100,3.62,overcast clouds
204,Hearst,CA,2021-06-03 22:10:36,49.6835,-83.6665,66.7,73,55,9.57,broken clouds
205,Qaqortoq,GL,2021-06-03 22:10:38,60.7167,-46.0333,50.5,78,82,6.55,broken clouds
206,Bathsheba,BB,2021-06-03 22:10:39,13.2167,-59.5167,83.01,61,20,16.98,few clouds
207,Codrington,AU,2021-06-03 22:10:40,-38.2667,141.9667,51.22,70,64,17.58,broken clouds
208,Sinnamary,GF,2021-06-03 22:10:42,5.3833,-52.95,78.82,88,96,9.64,overcast clouds
209,Cidreira,BR,2021-06-03 22:10:43,-30.1811,-50.2056,59.94,80,0,6.91,clear sky
210,Cortez,US,2021-06-03 22:10:44,37.3489,-108.5859,82.51,27,40,18.41,scattered clouds
211,Mercedes,AR,2021-06-03 22:05:58,-34.6515,-59.4307,62.83,79,90,7.83,overcast clouds
212,Constitucion,CL,2021-06-03 22:07:02,-35.3333,-72.4167,58.28,90,100,8.05,overcast clouds
213,Brunswick,US,2021-06-03 22:08:37,41.2381,-81.8418,69.06,94,90,3.0,heavy intensity rain
214,Port Macquarie,AU,2021-06-03 22:10:49,-31.4333,152.9167,57.88,82,3,9.6,clear sky
215,Fayaoue,NC,2021-06-03 22:10:50,-20.65,166.5333,74.43,58,88,5.37,overcast clouds
216,Ojinaga,MX,2021-06-03 22:10:52,29.5667,-104.4167,90.57,20,1,12.66,clear sky
217,Havelock,US,2021-06-03 22:10:53,34.8791,-76.9013,78.78,91,100,8.01,overcast clouds
218,Turukhansk,RU,2021-06-03 22:08:03,65.8167,87.9833,34.75,80,44,5.01,scattered clouds
219,Port Hardy,CA,2021-06-03 22:10:55,50.6996,-127.4199,54.16,78,79,9.57,broken clouds
220,Sterling,US,2021-06-03 22:06:09,39.0062,-77.4286,81.27,80,75,8.99,broken clouds
221,Roald,NO,2021-06-03 22:10:58,62.5833,6.1333,60.91,72,10,9.22,clear sky
222,Gusinoye Ozero,RU,2021-06-03 22:10:59,51.1144,106.2614,57.99,52,4,3.29,clear sky
223,Nelson Bay,AU,2021-06-03 22:11:01,-32.7167,152.15,58.08,83,19,3.0,few clouds
224,Rutland,US,2021-06-03 22:11:02,43.6167,-73.0162,72.84,88,90,7.56,overcast clouds
225,Tiznit,MA,2021-06-03 22:11:03,29.5833,-9.5,64.44,69,100,2.59,overcast clouds
226,Huntington,US,2021-06-03 22:07:36,38.4193,-82.4452,76.21,78,40,9.26,scattered clouds
227,Taoudenni,ML,2021-06-03 22:11:06,22.6783,-3.9836,102.61,9,56,5.61,broken clouds
228,Chuy,UY,2021-06-03 22:11:07,-33.6971,-53.4616,52.16,64,40,7.14,scattered clouds
229,Realeza,BR,2021-06-03 22:11:09,-25.7689,-53.5325,71.73,65,67,1.95,broken clouds
230,Kununurra,AU,2021-06-03 22:11:10,-15.7667,128.7333,73.38,53,40,5.75,scattered clouds
231,Skjervoy,NO,2021-06-03 22:11:11,70.0311,20.9714,51.31,67,14,3.8,few clouds
232,Tuatapere,NZ,2021-06-03 22:11:14,-46.1333,167.6833,49.82,84,89,8.05,overcast clouds
233,Praia Da Vitoria,PT,2021-06-03 22:11:15,38.7333,-27.0667,62.76,76,67,6.87,broken clouds
234,Touros,BR,2021-06-03 22:11:16,-5.1989,-35.4608,77.9,74,20,12.46,few clouds
235,Daryapur,IN,2021-06-03 22:11:18,20.9333,77.3333,85.95,51,99,6.29,overcast clouds
236,Tura,IN,2021-06-03 22:06:56,25.5198,90.2201,73.87,93,1,4.97,moderate rain
237,Tessalit,ML,2021-06-03 22:11:21,20.1986,1.0114,98.06,8,68,7.87,broken clouds
238,Saint-Georges,GD,2021-06-03 22:11:23,12.0564,-61.7485,82.08,74,20,19.57,few clouds
239,Rio Gallegos,AR,2021-06-03 22:11:24,-51.6226,-69.2181,37.45,93,90,3.44,light rain
240,Provideniya,RU,2021-06-03 22:11:25,64.3833,-173.3,35.71,69,75,13.42,broken clouds
241,Poum,NC,2021-06-03 22:11:27,-20.2333,164.0167,74.43,64,93,12.57,overcast clouds
242,Byron Bay,AU,2021-06-03 22:11:28,-28.65,153.6167,61.72,71,0,10.83,clear sky
243,Xichang,CN,2021-06-03 22:11:30,27.8964,102.2634,56.12,82,100,1.39,light rain
244,Coahuayana,MX,2021-06-03 22:11:32,18.7333,-103.6833,92.68,52,60,7.85,broken clouds
245,Norman Wells,CA,2021-06-03 22:11:33,65.282,-126.8329,62.06,56,81,6.2,broken clouds
246,Banikoara,BJ,2021-06-03 22:07:06,11.2985,2.4386,88.74,38,2,5.12,clear sky
247,Antofagasta,CL,2021-06-03 22:11:35,-23.65,-70.4,60.08,80,52,2.44,broken clouds
248,Kruisfontein,ZA,2021-06-03 22:11:37,-34.0033,24.7314,48.83,70,11,6.17,few clouds
249,Ascension,US,2021-06-03 22:11:38,30.2169,-90.9001,82.99,84,90,9.22,overcast clouds
250,Etchoropo,MX,2021-06-03 22:11:39,26.7667,-109.6667,105.42,30,0,14.25,clear sky
251,Ottumwa,US,2021-06-03 22:11:41,41.02,-92.4113,88.34,32,1,7.76,clear sky
252,Shenjiamen,CN,2021-06-03 22:11:42,29.9576,122.298,66.31,91,100,13.4,light rain
253,Gao,ML,2021-06-03 22:07:21,16.6362,1.637,96.53,11,73,6.91,broken clouds
254,Todos Santos,MX,2021-06-03 22:11:46,23.45,-110.2167,94.01,48,0,6.44,clear sky
255,Takoradi,GH,2021-06-03 22:08:43,4.8845,-1.7554,80.13,85,36,8.1,scattered clouds
256,Ewa Beach,US,2021-06-03 22:11:48,21.3156,-158.0072,87.75,51,90,12.66,overcast clouds
257,Teknaf,BD,2021-06-03 22:11:49,20.8624,92.3058,81.54,87,84,4.18,broken clouds
258,Khash,IR,2021-06-03 22:11:52,28.2211,61.2158,79.83,11,0,0.74,clear sky
259,Vila Franca Do Campo,PT,2021-06-03 22:11:53,37.7167,-25.4333,63.01,77,60,4.14,broken clouds
260,Miri,MY,2021-06-03 22:11:55,4.4148,114.0089,77.31,94,99,4.45,overcast clouds
261,Kerrobert,CA,2021-06-03 22:11:56,51.9168,-109.1348,92.14,21,5,11.65,clear sky
262,Tahoua,NE,2021-06-03 22:11:57,14.8888,5.2692,94.51,17,46,9.62,scattered clouds
263,Birjand,IR,2021-06-03 22:11:58,32.8663,59.2211,72.07,14,0,9.22,clear sky
264,Nawashahr,IN,2021-06-03 22:12:00,31.1167,76.1333,81.0,44,15,4.14,few clouds
265,Monrovia,LR,2021-06-03 22:10:31,6.3005,-10.7969,81.12,81,100,8.14,overcast clouds
266,Kaitangata,NZ,2021-06-03 22:12:02,-46.2817,169.8464,50.94,83,100,3.11,overcast clouds
267,Esperance,AU,2021-06-03 22:12:04,-33.8667,121.9,56.1,81,0,10.49,clear sky
268,Talnakh,RU,2021-06-03 22:12:05,69.4865,88.3972,32.56,99,100,5.08,light snow
269,Alofi,NU,2021-06-03 22:12:08,-19.0595,-169.9187,76.89,94,90,5.75,light rain
270,Husavik,IS,2021-06-03 22:12:09,66.0449,-17.3389,50.0,65,100,1.74,overcast clouds
271,Jardim,BR,2021-06-03 22:08:54,-21.4803,-56.1381,78.73,40,19,1.48,few clouds
272,Mandera,KE,2021-06-03 22:12:11,3.9366,41.867,79.99,58,22,20.92,few clouds
273,Plettenberg Bay,ZA,2021-06-03 22:12:13,-34.0527,23.3716,55.09,66,33,4.29,scattered clouds
274,Paso De Los Toros,UY,2021-06-03 22:10:26,-32.8167,-56.5167,57.94,70,71,8.28,broken clouds
275,Itaituba,BR,2021-06-03 22:12:15,-4.2761,-55.9836,81.12,69,33,3.31,light rain
276,Krasnyy Chikoy,RU,2021-06-03 22:12:17,50.3643,108.7512,48.4,93,71,2.64,broken clouds
277,Beloha,MG,2021-06-03 22:12:18,-25.1667,45.05,67.14,90,100,5.59,overcast clouds
278,Cap Malheureux,MU,2021-06-03 22:12:19,-19.9842,57.6142,74.46,74,25,8.01,light rain
279,Chumikan,RU,2021-06-03 22:12:21,54.7183,135.315,35.44,97,100,6.96,overcast clouds
280,Eirunepe,BR,2021-06-03 22:11:44,-6.6603,-69.8736,81.0,73,82,1.81,broken clouds
281,Severo-Kurilsk,RU,2021-06-03 22:12:23,50.6789,156.125,44.83,76,52,10.16,broken clouds
282,Palaikastron,GR,2021-06-03 22:12:24,35.2,26.25,66.47,72,0,14.23,clear sky
283,Ponta Delgada,PT,2021-06-03 22:12:26,37.7333,-25.6667,63.32,72,20,2.3,few clouds
284,Yambio,SS,2021-06-03 22:12:27,4.5721,28.3955,67.68,96,100,4.43,overcast clouds
285,Marsh Harbour,BS,2021-06-03 22:12:29,26.5412,-77.0636,79.25,76,47,15.35,scattered clouds
286,Cap-Aux-Meules,CA,2021-06-03 22:12:30,47.3821,-61.8597,52.07,81,100,12.33,overcast clouds
287,Hualmay,PE,2021-06-03 22:08:15,-11.0964,-77.6139,67.33,76,78,9.46,broken clouds
288,College,US,2021-06-03 22:12:33,64.8569,-147.8028,71.58,31,75,1.01,broken clouds
289,Korla,CN,2021-06-03 22:12:34,41.7597,86.1469,77.74,23,81,3.18,broken clouds
290,Umm Lajj,SA,2021-06-03 22:12:35,25.0213,37.2685,81.84,69,5,11.34,clear sky
291,Uglich,RU,2021-06-03 22:12:37,57.5275,38.3317,48.72,82,60,6.4,broken clouds
292,Mitsamiouli,KM,2021-06-03 22:12:38,-11.3847,43.2844,77.58,74,12,3.74,few clouds
293,Karasuk,RU,2021-06-03 22:12:39,53.7377,78.0403,53.33,66,20,2.53,few clouds
294,Gornyak,RU,2021-06-03 22:12:41,50.9942,81.4661,63.32,82,72,7.05,broken clouds
295,Bilma,NE,2021-06-03 22:12:42,18.6853,12.9164,94.23,11,88,3.58,overcast clouds
296,Yar-Sale,RU,2021-06-03 22:12:43,66.8333,70.8333,34.83,72,83,9.01,broken clouds
297,Mayumba,GA,2021-06-03 22:12:45,-3.432,10.6554,76.44,92,4,6.15,clear sky
298,Ararat,AM,2021-06-03 22:12:47,39.8317,44.7049,64.74,27,0,4.68,clear sky
299,Shingu,JP,2021-06-03 22:12:50,33.7333,135.9833,72.91,99,100,11.27,overcast clouds
300,Cabo San Lucas,MX,2021-06-03 22:12:46,22.8909,-109.9124,94.51,40,1,13.8,clear sky
301,Ambilobe,MG,2021-06-03 22:12:52,-13.2,49.05,68.67,89,24,2.93,few clouds
302,Shimoda,JP,2021-06-03 22:12:53,34.6667,138.95,68.11,96,100,16.44,moderate rain
303,Ixtapa,MX,2021-06-03 22:12:55,20.7,-105.2,85.23,70,90,10.36,overcast clouds
304,Linhares,BR,2021-06-03 22:12:57,-19.3911,-40.0722,69.58,86,96,3.87,overcast clouds
305,Kholm,RU,2021-06-03 22:12:58,59.2667,32.85,51.58,73,28,5.44,scattered clouds
306,Padilla,CO,2021-06-03 22:13:00,3.2204,-76.3139,83.77,75,63,0.54,broken clouds
307,Khabary,RU,2021-06-03 22:13:01,53.6259,79.5345,53.87,66,74,7.02,broken clouds
308,Candia,US,2021-06-03 22:13:02,43.0779,-71.2767,76.48,74,96,11.01,overcast clouds
309,General Roca,AR,2021-06-03 22:09:13,-39.0333,-67.5833,73.8,40,60,28.41,broken clouds
310,Tasiilaq,GL,2021-06-03 22:13:05,65.6145,-37.6368,42.96,76,79,5.21,broken clouds
311,Tilichiki,RU,2021-06-03 22:13:06,60.4667,166.1,48.72,53,54,15.05,broken clouds
312,Hobyo,SO,2021-06-03 22:13:08,5.3505,48.5268,78.28,87,69,24.79,broken clouds
313,Aklavik,CA,2021-06-03 22:13:09,68.2191,-135.0107,47.71,69,100,8.37,overcast clouds
314,Oistins,BB,2021-06-03 22:13:11,13.0667,-59.5333,82.49,61,20,18.41,few clouds
315,Sindor,RU,2021-06-03 22:13:13,62.8629,51.8905,47.07,81,2,4.45,clear sky
316,Te Anau,NZ,2021-06-03 22:13:14,-45.4167,167.7167,48.11,90,100,5.06,overcast clouds
317,Dingle,PH,2021-06-03 22:13:16,10.9995,122.6711,77.11,88,100,2.04,light rain
318,Troyes,FR,2021-06-03 22:13:18,48.3333,4.0833,66.54,94,0,0.0,clear sky
319,Homer,US,2021-06-03 22:13:19,59.6425,-151.5483,53.49,71,90,10.36,overcast clouds
320,Kavieng,PG,2021-06-03 22:13:20,-2.5744,150.7967,82.71,74,98,3.91,overcast clouds
321,Chapleau,CA,2021-06-03 22:13:22,47.8405,-83.4034,63.88,75,98,9.24,overcast clouds
322,Matay,EG,2021-06-03 22:13:24,28.419,30.7792,73.78,40,8,18.14,clear sky
323,Novaya Bryan,RU,2021-06-03 22:13:26,51.7159,108.2691,47.17,74,0,1.83,clear sky
324,Cayenne,GF,2021-06-03 22:13:27,4.9333,-52.3333,81.09,83,90,3.0,overcast clouds
325,Kerema,PG,2021-06-03 22:13:28,-7.9631,145.7785,77.4,91,98,0.29,overcast clouds
326,Sydney,AU,2021-06-03 22:08:38,-33.8679,151.2073,56.71,90,20,1.01,few clouds
327,Belyy Yar,RU,2021-06-03 22:13:31,53.6039,91.3903,62.49,77,0,3.96,clear sky
328,Vostok,RU,2021-06-03 22:13:32,46.4856,135.8833,47.48,99,100,3.69,overcast clouds
329,Christchurch,NZ,2021-06-03 22:10:11,-43.5333,172.6333,48.02,96,90,4.61,fog
330,Englehart,CA,2021-06-03 22:13:34,47.8169,-79.8664,61.36,88,75,11.83,light rain
331,Half Moon Bay,US,2021-06-03 22:08:59,37.4636,-122.4286,94.57,64,20,8.05,haze
332,Hamilton,US,2021-06-03 22:13:37,39.1834,-84.5333,73.94,88,75,1.99,light rain
333,Waingapu,ID,2021-06-03 22:13:39,-9.6567,120.2641,75.67,89,52,6.51,broken clouds
334,San Juan,AR,2021-06-03 22:13:40,-31.5375,-68.5364,79.74,32,25,4.27,scattered clouds
335,Marrakesh,MA,2021-06-03 22:13:41,31.6315,-8.0083,69.87,56,75,6.91,broken clouds
336,Lingyuan,CN,2021-06-03 22:13:43,41.24,119.4011,59.79,50,97,3.29,overcast clouds
337,Hirara,JP,2021-06-03 22:13:44,24.8,125.2833,82.67,94,75,12.66,broken clouds
338,Berlevag,NO,2021-06-03 22:13:45,70.8578,29.0864,51.26,65,6,13.09,clear sky
339,Labuhan,ID,2021-06-03 22:13:48,-6.8844,112.2051,76.84,85,78,7.31,broken clouds
340,Qandala,SO,2021-06-03 22:13:49,11.472,49.8728,88.27,60,54,4.43,broken clouds
341,Olafsvik,IS,2021-06-03 22:13:50,64.8945,-23.7142,47.82,84,100,11.83,overcast clouds
342,Guajara,BR,2021-06-03 22:13:52,-2.9667,-57.6667,75.31,95,6,3.44,clear sky
343,Pasighat,IN,2021-06-03 22:13:55,28.0667,95.3333,74.84,92,86,2.08,overcast clouds
344,Nambucca Heads,AU,2021-06-03 22:13:58,-30.65,153.0,59.0,68,1,10.22,clear sky
345,Eldorado,BR,2021-06-03 22:13:59,-23.7869,-54.2836,71.6,66,0,6.4,clear sky
346,Moron,AR,2021-06-03 22:14:00,-34.6534,-58.6198,63.99,74,87,1.99,overcast clouds
347,Kupang,ID,2021-06-03 22:14:02,-10.1667,123.5833,77.58,88,20,6.91,few clouds
348,Airai,TL,2021-06-03 22:14:03,-8.9266,125.4092,57.56,90,44,3.15,scattered clouds
349,Alyangula,AU,2021-06-03 22:14:05,-13.8483,136.4192,75.16,79,51,9.55,broken clouds
350,Eureka,US,2021-06-03 22:14:06,40.8021,-124.1637,83.68,79,47,3.0,scattered clouds
351,Namalenga,TZ,2021-06-03 22:14:07,-10.95,39.1,66.38,97,35,3.62,scattered clouds
352,Terracina,IT,2021-06-03 22:14:09,41.2863,13.2217,69.48,80,0,1.99,clear sky
353,Venado Tuerto,AR,2021-06-03 22:14:10,-33.7456,-61.9688,62.78,67,19,8.01,few clouds
354,Sokolovo,RU,2021-06-03 22:14:11,52.5318,84.7896,60.44,93,100,1.83,light rain
355,Coos Bay,US,2021-06-03 22:14:13,43.3665,-124.2179,88.86,78,90,17.27,overcast clouds
356,Kendari,ID,2021-06-03 22:14:14,-3.945,122.4989,74.75,94,100,1.32,moderate rain
357,Hofn,IS,2021-06-03 22:14:15,64.2539,-15.2082,48.61,80,98,7.85,overcast clouds
358,Gambela,ET,2021-06-03 22:14:17,8.25,34.5833,71.58,90,100,5.95,moderate rain
359,Eyl,SO,2021-06-03 22:14:18,7.9803,49.8164,79.61,80,99,16.53,overcast clouds
360,Waddan,LY,2021-06-03 22:14:19,29.1614,16.139,83.89,30,61,12.64,broken clouds
361,Geraldton,AU,2021-06-03 22:14:21,-28.7667,114.6,46.81,87,0,10.47,clear sky
362,Nago,JP,2021-06-03 22:14:22,26.5881,127.9761,83.25,91,78,13.02,broken clouds
363,Valdivia,CL,2021-06-03 22:14:23,-39.8142,-73.2459,55.49,97,100,2.62,overcast clouds
364,Cachoeira Do Sul,BR,2021-06-03 22:14:27,-30.0392,-52.8939,56.68,82,0,4.88,clear sky
365,Bull Savanna,JM,2021-06-03 22:14:28,17.8868,-77.5902,80.29,72,75,12.08,broken clouds
366,Tazovskiy,RU,2021-06-03 22:14:30,67.4667,78.7,31.35,83,56,8.93,broken clouds
367,Itarema,BR,2021-06-03 22:14:31,-2.9248,-39.9167,79.68,72,11,14.5,few clouds
368,Malysheva,RU,2021-06-03 22:14:32,57.1185,61.4035,48.18,67,0,5.23,clear sky
369,Guerrero Negro,MX,2021-06-03 22:14:34,27.9769,-114.0611,74.03,49,4,13.06,clear sky
370,Tezu,IN,2021-06-03 22:14:35,27.9167,96.1667,75.67,77,94,2.13,light rain
371,Bandarbeyla,SO,2021-06-03 22:14:36,9.4942,50.8122,79.56,81,100,17.07,overcast clouds
372,Kudahuvadhoo,MV,2021-06-03 22:14:38,2.6708,72.8944,83.23,69,98,16.82,overcast clouds
373,Port Blair,IN,2021-06-03 22:14:39,11.6667,92.75,82.74,76,100,3.87,overcast clouds
374,Nouadhibou,MR,2021-06-03 22:14:40,20.931,-17.0347,66.51,78,71,25.03,broken clouds
375,Williams Lake,CA,2021-06-03 22:14:41,52.1415,-122.1445,71.22,29,40,1.99,scattered clouds
376,Hatfield,GB,2021-06-03 22:14:43,51.7634,-0.2242,64.56,74,64,5.61,broken clouds
377,Ust-Ordynskiy,RU,2021-06-03 22:14:44,52.805,104.7508,44.44,60,0,2.68,clear sky
378,North Bend,US,2021-06-03 22:14:47,43.4065,-124.2243,77.99,78,90,17.27,overcast clouds
379,Santa Cruz,BO,2021-06-03 22:14:49,-17.8,-63.1667,76.46,83,75,7.56,broken clouds
380,Khandbari,NP,2021-06-03 22:14:50,27.3747,87.2039,69.35,85,38,2.24,scattered clouds
381,Asgabat,TM,2021-06-03 22:14:52,37.95,58.3833,84.06,42,0,6.91,clear sky
382,Carutapera,BR,2021-06-03 22:14:54,-1.195,-46.02,77.45,89,18,7.25,few clouds
383,Kharan,PK,2021-06-03 22:14:55,28.5833,65.4167,88.34,34,0,2.68,clear sky
384,Tual,ID,2021-06-03 22:14:57,-5.6667,132.75,81.75,75,64,18.9,broken clouds
385,Mar Del Plata,AR,2021-06-03 22:14:36,-38.0023,-57.5575,57.13,54,0,7.0,light rain
386,Kalmunai,LK,2021-06-03 22:14:59,7.4167,81.8167,79.29,85,100,3.0,overcast clouds
387,Clarence Town,AU,2021-06-03 22:15:00,-32.5833,151.7833,58.33,82,6,11.36,clear sky
388,Namibe,AO,2021-06-03 22:15:02,-15.1961,12.1522,70.83,80,20,3.91,few clouds
389,Dera Ghazi Khan,PK,2021-06-03 22:15:04,30.0561,70.6348,89.53,48,1,5.14,clear sky
390,Nsanje,MW,2021-06-03 22:15:06,-16.92,35.262,68.63,86,97,2.86,overcast clouds
391,Coffs Harbour,AU,2021-06-03 22:15:07,-30.3,153.1333,58.96,77,0,8.05,clear sky
392,Svetlaya,RU,2021-06-03 22:15:08,46.5389,138.3297,47.03,99,100,12.41,heavy intensity rain
393,Padang,ID,2021-06-03 22:15:10,-0.9492,100.3543,78.73,88,100,2.82,overcast clouds
394,Juba,SS,2021-06-03 22:15:11,4.8517,31.5825,72.09,78,76,3.58,broken clouds
395,Puerto Ayacucho,VE,2021-06-03 22:15:12,5.6639,-67.6236,81.59,80,77,3.18,broken clouds
396,Villarrica,PY,2021-06-03 22:15:14,-25.75,-56.4333,74.75,58,51,2.53,broken clouds
397,Yaan,NG,2021-06-03 22:15:15,7.3833,8.5667,77.76,83,52,6.08,broken clouds
398,Amahai,ID,2021-06-03 22:15:16,-3.3333,128.9167,77.5,89,100,5.39,overcast clouds
399,Bridlington,GB,2021-06-03 22:15:18,54.0831,-0.1919,60.01,93,63,5.21,broken clouds
400,Coquimbo,CL,2021-06-03 22:11:12,-29.9533,-71.3436,56.93,94,90,1.61,overcast clouds
401,Vangaindrano,MG,2021-06-03 22:15:20,-23.35,47.6,67.75,95,73,4.83,light rain
402,Genhe,CN,2021-06-03 22:15:22,50.7833,121.5167,49.62,88,100,6.87,overcast clouds
403,Gorontalo,ID,2021-06-03 22:15:23,0.5412,123.0595,74.95,92,92,2.04,overcast clouds
404,Peterhead,GB,2021-06-03 22:15:24,57.5058,-1.7981,57.11,88,78,10.58,broken clouds
405,Fare,PF,2021-06-03 22:15:26,-16.7,-151.0167,81.12,74,62,12.08,broken clouds
406,Leningradskiy,RU,2021-06-03 22:15:27,69.3833,178.4167,31.28,80,72,7.27,broken clouds
407,Motygino,RU,2021-06-03 22:15:28,58.1831,94.7592,51.17,96,100,3.2,moderate rain
408,Iwanai,JP,2021-06-03 22:15:30,42.9744,140.5089,60.85,89,100,13.67,overcast clouds
409,Kulhudhuffushi,MV,2021-06-03 22:15:31,6.6221,73.07,82.24,79,86,16.31,overcast clouds
410,Lata,PT,2021-06-03 22:15:32,40.1629,-8.3327,57.81,87,0,4.47,clear sky
411,Oranjemund,NA,2021-06-03 22:15:34,-28.55,16.4333,65.88,41,0,8.95,clear sky
412,De-Kastri,RU,2021-06-03 22:15:35,51.4667,140.7833,47.37,98,100,5.97,light rain
413,Lakselv,NO,2021-06-03 22:15:37,70.0513,24.9718,57.02,54,0,4.61,clear sky
414,Carlyle,US,2021-06-03 22:15:38,38.6103,-89.3726,83.43,63,84,5.97,broken clouds
415,Ust-Ishim,RU,2021-06-03 22:15:39,57.6935,71.1665,39.85,93,91,6.67,overcast clouds
416,Benguela,AO,2021-06-03 22:15:41,-12.5763,13.4055,73.36,88,7,3.74,clear sky
417,Bend,US,2021-06-03 22:14:34,44.0582,-121.3153,91.0,29,1,3.0,clear sky
418,Chapais,CA,2021-06-03 22:15:43,49.7834,-74.8492,71.38,44,74,10.83,broken clouds
419,Wajima,JP,2021-06-03 22:15:45,37.4,136.9,66.07,92,100,7.58,overcast clouds
420,Agadez,NE,2021-06-03 22:15:48,19.75,10.25,92.89,8,2,4.92,clear sky
421,Bahia Honda,CU,2021-06-03 22:15:49,22.9036,-83.1592,84.34,64,80,8.41,broken clouds
422,Aswan,EG,2021-06-03 22:15:51,24.0934,32.907,86.05,16,75,19.64,broken clouds
423,Manchester,GB,2021-06-03 22:14:15,53.4809,-2.2374,60.01,72,75,3.53,broken clouds
424,Tongliao,CN,2021-06-03 22:15:53,43.6125,122.2653,57.38,58,39,8.84,scattered clouds
425,Manoel Urbano,BR,2021-06-03 22:15:55,-8.8389,-69.2597,82.31,64,100,0.85,overcast clouds
426,Nanortalik,GL,2021-06-03 22:15:56,60.1432,-45.2371,36.75,86,91,13.42,overcast clouds
427,Khalkhal,IR,2021-06-03 22:15:57,37.6189,48.5258,57.99,50,8,2.8,clear sky
428,Mlonggo,ID,2021-06-03 22:15:59,-6.5333,110.7,77.31,88,75,5.61,broken clouds
429,Merritt Island,US,2021-06-03 22:13:15,28.5392,-80.672,85.26,78,40,12.66,scattered clouds
430,Fort Nelson,CA,2021-06-03 22:16:01,58.8053,-122.7002,71.19,28,75,2.3,broken clouds
431,Challapata,BO,2021-06-03 22:16:02,-18.9,-66.7667,46.44,25,46,1.59,scattered clouds
432,Isangel,VU,2021-06-03 22:16:04,-19.55,169.2667,77.11,73,40,12.91,scattered clouds
433,Inirida,CO,2021-06-03 22:16:05,3.8653,-67.9239,79.27,89,73,2.13,broken clouds
434,Sulphur Springs,US,2021-06-03 22:16:06,33.1385,-95.6011,83.98,44,1,0.0,clear sky
435,Bubaque,GW,2021-06-03 22:16:08,11.2833,-15.8333,78.53,76,57,14.74,broken clouds
436,Hongjiang,CN,2021-06-03 22:16:09,27.11,109.9956,63.0,95,100,1.32,overcast clouds
437,Pangnirtung,CA,2021-06-03 22:16:10,66.1451,-65.7125,37.4,65,90,6.91,overcast clouds
438,Weyburn,CA,2021-06-03 22:16:12,49.6668,-103.8511,95.18,14,9,8.05,clear sky
439,Ugoofaaru,MV,2021-06-03 22:16:13,5.6667,73.0,82.38,78,100,14.99,overcast clouds
440,Gorlice,PL,2021-06-03 22:16:14,49.6556,21.1604,55.96,87,74,2.37,broken clouds
441,Sitka,US,2021-06-03 22:16:16,57.0531,-135.33,48.09,87,90,8.05,moderate rain
442,Dodge City,US,2021-06-03 22:11:22,37.7528,-100.0171,84.45,36,20,1.99,few clouds
443,Grand Gaube,MU,2021-06-03 22:16:18,-20.0064,57.6608,74.37,74,25,5.01,light rain
444,Dubbo,AU,2021-06-03 22:14:21,-32.25,148.6167,51.93,93,90,5.75,overcast clouds
445,Bonavista,CA,2021-06-03 22:16:20,48.6499,-53.1147,71.6,69,55,12.06,broken clouds
446,Bartlett,US,2021-06-03 22:16:22,35.2045,-89.874,83.43,58,1,1.01,clear sky
447,Krasnoslobodsk,RU,2021-06-03 22:16:23,48.7072,44.5714,57.02,94,75,6.8,broken clouds
448,Ironton,US,2021-06-03 22:16:24,38.5368,-82.6829,75.92,87,90,6.91,moderate rain
449,Teguise,ES,2021-06-03 22:16:26,29.0605,-13.564,64.62,77,20,19.48,few clouds
450,Sambava,MG,2021-06-03 22:16:27,-14.2667,50.1667,71.15,90,77,7.58,broken clouds
451,Nome,US,2021-06-03 22:16:28,64.5011,-165.4064,36.16,60,75,19.57,broken clouds
452,Dombarovskiy,RU,2021-06-03 22:16:30,50.7587,59.5386,60.64,75,100,15.88,overcast clouds
453,Karratha,AU,2021-06-03 22:16:31,-20.7377,116.8463,66.81,49,100,14.45,overcast clouds
454,Mehamn,NO,2021-06-03 22:16:32,71.0357,27.8492,50.61,71,35,17.6,scattered clouds
455,Khor,RU,2021-06-03 22:16:34,47.8861,134.9464,53.31,95,100,9.78,light rain
456,Madimba,TZ,2021-06-03 22:16:36,-10.4,40.3333,72.1,85,28,3.15,scattered clouds
457,Belmonte,BR,2021-06-03 22:16:37,-15.8631,-38.8828,77.5,85,2,8.81,clear sky
458,Tutoia,BR,2021-06-03 22:16:38,-2.7619,-42.2744,80.38,79,82,7.74,broken clouds
459,Japura,ID,2021-06-03 22:16:39,-0.3167,102.35,74.68,98,100,2.04,overcast clouds
460,Tocopilla,CL,2021-06-03 22:11:53,-22.092,-70.1979,64.04,74,88,0.49,overcast clouds
461,Baghmara,IN,2021-06-03 22:16:42,23.795,86.2085,86.59,56,5,3.44,clear sky
462,Sanmenxia,CN,2021-06-03 22:16:44,34.7747,111.1814,61.74,44,31,3.15,scattered clouds
463,Richards Bay,ZA,2021-06-03 22:16:47,-28.783,32.0377,62.29,67,100,20.29,light rain
464,Gusau,NG,2021-06-03 22:16:48,12.1628,6.6614,91.42,29,2,6.6,clear sky
465,Mbeya,TZ,2021-06-03 22:16:50,-8.9,33.45,56.39,86,91,4.85,overcast clouds
466,Sidi Ali,DZ,2021-06-03 22:16:51,36.0998,0.4206,68.0,83,62,3.18,broken clouds
467,Kholmogory,RU,2021-06-03 22:16:53,64.2229,41.656,46.51,67,45,3.13,scattered clouds
468,Ternate,ID,2021-06-03 22:16:55,0.8,127.4,80.22,80,98,1.32,overcast clouds
469,Alot,IN,2021-06-03 22:16:56,23.7667,75.55,85.82,44,59,5.64,broken clouds
470,Narsaq,GL,2021-06-03 22:16:58,60.9167,-46.05,50.22,70,75,3.91,broken clouds
471,Charagua,BO,2021-06-03 22:17:00,-19.8,-63.2167,76.57,55,60,10.22,broken clouds
472,Uppsala,SE,2021-06-03 22:17:02,60.0,17.75,54.91,77,0,4.12,clear sky
473,Okhotsk,RU,2021-06-03 22:17:04,59.3833,143.3,42.37,83,1,4.12,clear sky
474,Lhokseumawe,ID,2021-06-03 22:17:05,5.1801,97.1507,78.33,87,70,3.33,broken clouds
475,Hailar,CN,2021-06-03 22:17:06,49.2,119.7,51.48,79,98,13.65,overcast clouds
476,Chegdomyn,RU,2021-06-03 22:17:08,51.1167,133.0167,50.65,98,100,2.91,moderate rain
477,Liwale,TZ,2021-06-03 22:17:09,-9.7667,37.9333,63.09,93,68,1.16,broken clouds
478,Kitangari,TZ,2021-06-03 22:17:10,-10.65,39.3333,64.44,98,38,2.08,scattered clouds
479,Wangaratta,AU,2021-06-03 22:17:14,-36.3667,146.3333,49.15,100,90,8.05,overcast clouds
480,Tandil,AR,2021-06-03 22:17:15,-37.3217,-59.1332,57.31,80,73,3.0,light rain
481,Varna,BG,2021-06-03 22:17:16,43.2167,27.9167,60.94,72,40,10.36,scattered clouds
482,Evensk,RU,2021-06-03 22:17:18,61.95,159.2333,44.82,75,20,8.93,few clouds
483,Presidencia Roque Saenz Pena,AR,2021-06-03 22:15:06,-26.7852,-60.4388,77.13,65,36,8.14,scattered clouds
484,Grand-Santi,GF,2021-06-03 22:17:20,4.25,-54.3833,74.46,97,47,2.44,moderate rain
485,Cabedelo,BR,2021-06-03 22:17:04,-6.9811,-34.8339,77.67,77,23,11.34,few clouds
486,Taiyuan,CN,2021-06-03 22:17:23,37.8694,112.5603,51.66,50,0,5.06,clear sky
487,Alanya,TR,2021-06-03 22:17:24,36.5438,31.9998,66.33,61,2,3.67,clear sky
488,Salaga,GH,2021-06-03 22:17:25,8.5508,-0.5188,80.55,71,27,3.94,scattered clouds
489,Chaves,US,2021-06-03 22:17:27,33.3834,-104.4505,86.59,26,1,5.06,clear sky
490,Gimli,CA,2021-06-03 22:17:29,50.6336,-96.9907,85.05,73,99,3.44,overcast clouds
491,Baoning,CN,2021-06-03 22:17:30,25.3378,110.026,67.86,88,75,3.85,broken clouds
492,Timra,SE,2021-06-03 22:17:31,62.487,17.3257,55.11,80,16,1.14,few clouds
493,Tarauaca,BR,2021-06-03 22:17:33,-8.1614,-70.7656,81.64,72,89,0.85,overcast clouds
494,Praya,CV,2021-06-03 22:17:18,14.9215,-23.5087,73.94,78,40,17.27,scattered clouds
495,Luebo,CD,2021-06-03 22:17:35,-5.35,21.4167,72.34,72,31,0.92,scattered clouds
496,La Ronge,CA,2021-06-03 22:17:36,55.1001,-105.2842,75.42,46,75,10.36,broken clouds
497,Ahuimanu,US,2021-06-03 22:17:38,21.4447,-157.8378,87.51,50,40,11.5,scattered clouds
498,Burley,US,2021-06-03 22:17:39,42.5357,-113.7928,96.76,14,1,3.44,clear sky
499,Yulara,AU,2021-06-03 22:17:40,-25.2406,130.9889,46.24,81,81,5.75,broken clouds
500,Aloleng,PH,2021-06-03 22:17:42,16.1307,119.7824,81.28,79,97,11.68,overcast clouds
501,Camalu,MX,2021-06-03 22:17:43,30.85,-116.0667,68.7,63,0,8.3,clear sky
502,At-Bashi,KG,2021-06-03 22:17:45,41.1702,75.8106,54.54,63,52,0.98,broken clouds
503,Dustlik,UZ,2021-06-03 22:17:46,40.5247,68.0358,77.61,25,0,2.8,clear sky
504,Beidao,CN,2021-06-03 22:17:47,34.5686,105.8933,53.62,39,68,3.09,broken clouds
505,Canutama,BR,2021-06-03 22:17:49,-6.5339,-64.3831,82.26,60,5,2.53,clear sky
506,Rovaniemi,FI,2021-06-03 22:17:50,66.5,25.7167,60.21,51,0,9.22,clear sky
507,Fjerritslev,DK,2021-06-03 22:17:51,57.0813,9.2664,59.9,84,100,13.67,overcast clouds
508,Oxbow,CA,2021-06-03 22:17:53,49.2333,-102.1676,93.15,31,8,6.4,clear sky
509,Bima,ID,2021-06-03 22:17:54,-8.4667,118.7167,73.69,94,67,3.91,broken clouds
510,Flin Flon,CA,2021-06-03 22:15:45,54.7682,-101.865,66.04,72,90,7.54,overcast clouds
511,Meadow Lake,US,2021-06-03 22:17:56,34.8014,-106.5436,87.48,13,89,4.41,overcast clouds
512,Awbari,LY,2021-06-03 22:17:58,26.5921,12.7805,92.61,14,33,6.58,scattered clouds
513,Arlit,NE,2021-06-03 22:17:59,18.7369,7.3853,95.22,10,72,10.04,broken clouds
514,Southbridge,US,2021-06-03 22:18:00,42.0751,-72.0334,71.33,89,100,3.0,overcast clouds
515,Ucluelet,CA,2021-06-03 22:16:00,48.9329,-125.5528,79.05,83,42,5.01,scattered clouds
516,Tacuarembo,UY,2021-06-03 22:18:03,-31.7333,-55.9833,56.64,75,25,5.91,scattered clouds
517,Katsuura,JP,2021-06-03 22:18:05,35.1333,140.3,71.19,88,99,23.47,overcast clouds
518,Beira,MZ,2021-06-03 22:18:07,-19.8436,34.8389,71.69,78,40,9.22,scattered clouds
519,Talara,PE,2021-06-03 22:18:08,-4.5772,-81.2719,69.28,81,5,14.94,clear sky
520,Saldanha,ZA,2021-06-03 22:18:10,-33.0117,17.9442,51.85,65,57,5.57,broken clouds
521,Surt,LY,2021-06-03 22:18:11,31.2089,16.5887,70.72,77,50,15.9,scattered clouds
522,Samarai,PG,2021-06-03 22:18:12,-10.6167,150.6667,79.23,87,79,8.48,broken clouds
523,Asaba,NG,2021-06-03 22:18:14,6.2006,6.7338,78.55,87,31,6.67,scattered clouds
524,Mount Gambier,AU,2021-06-03 22:18:16,-37.8333,140.7667,48.11,93,75,12.66,broken clouds
525,Mantua,IT,2021-06-03 22:18:17,45.1667,10.7833,72.28,71,53,5.55,broken clouds
526,Kysyl-Syr,RU,2021-06-03 22:18:18,63.8986,122.7617,69.06,53,34,6.6,scattered clouds
527,Onalaska,US,2021-06-03 22:18:20,43.8844,-91.2351,91.26,22,40,13.8,scattered clouds
528,Solnechnyy,RU,2021-06-03 22:18:21,50.7214,136.6319,52.52,99,100,5.55,overcast clouds
529,Vuktyl,RU,2021-06-03 22:18:22,63.8567,57.3094,42.82,66,30,3.71,scattered clouds
530,Wasilla,US,2021-06-03 22:18:24,61.5814,-149.4394,58.84,60,90,0.0,overcast clouds
531,Khuzhir,RU,2021-06-03 22:18:25,53.1939,107.3397,46.9,72,5,0.96,clear sky
532,Saint-Augustin,CA,2021-06-03 22:18:26,51.226,-58.6502,60.82,61,95,18.95,overcast clouds
533,Tiksi,RU,2021-06-03 22:18:28,71.6872,128.8694,32.13,93,100,4.97,snow
534,Khorramshahr,IR,2021-06-03 22:18:29,30.4397,48.1664,89.56,23,0,9.22,clear sky
535,Pirdop,BG,2021-06-03 22:18:30,42.7,24.1833,57.92,81,97,1.41,overcast clouds
536,Batagay-Alyta,RU,2021-06-03 22:18:32,67.8006,130.4114,63.5,51,84,5.7,broken clouds
537,Parkes,AU,2021-06-03 22:18:33,-33.1333,148.1833,51.35,96,92,1.99,overcast clouds
538,Onufriyivka,UA,2021-06-03 22:18:34,48.9072,33.4487,52.95,93,99,8.28,overcast clouds
539,Ahipara,NZ,2021-06-03 22:18:36,-35.1667,173.1667,58.57,64,17,1.79,few clouds
540,Caiaponia,BR,2021-06-03 22:18:37,-16.9567,-51.8103,75.02,37,36,2.77,scattered clouds
541,Los Llanos De Aridane,ES,2021-06-03 22:18:38,28.6585,-17.9182,64.15,84,90,14.72,overcast clouds
542,Yarim,YE,2021-06-03 22:18:40,14.298,44.3779,61.52,36,83,2.64,broken clouds
543,Huarmey,PE,2021-06-03 22:18:41,-10.0681,-78.1522,68.56,74,45,9.13,scattered clouds
544,Aksu,CN,2021-06-03 22:18:42,41.1231,80.2644,72.43,34,33,3.91,scattered clouds
545,Aasiaat,GL,2021-06-03 22:18:44,68.7098,-52.8699,33.53,96,100,10.31,overcast clouds
546,Peniche,PT,2021-06-03 22:18:45,39.3558,-9.3811,58.73,77,0,22.06,clear sky
547,Makakilo City,US,2021-06-03 22:18:46,21.3469,-158.0858,86.32,53,90,12.66,overcast clouds
548,Hohhot,CN,2021-06-03 22:18:48,40.8106,111.6522,53.89,50,0,6.31,clear sky
549,Guatire,VE,2021-06-03 22:18:49,10.4762,-66.5427,77.5,79,72,3.87,broken clouds
550,Gobabis,NA,2021-06-03 22:18:50,-22.45,18.9667,48.29,59,2,10.31,clear sky
551,Vanavara,RU,2021-06-03 22:18:52,60.34,102.2797,55.62,91,100,5.44,overcast clouds
552,Port Augusta,AU,2021-06-03 22:18:53,-32.5,137.7667,54.72,91,9,3.38,clear sky
553,Oranjestad,AW,2021-06-03 22:16:20,12.524,-70.027,84.15,76,20,5.01,few clouds
554,Flinders,AU,2021-06-03 22:18:55,-34.5833,150.8552,59.18,76,38,5.01,scattered clouds
555,Rawson,AR,2021-06-03 22:17:30,-43.3002,-65.1023,47.75,90,100,6.62,overcast clouds
556,Mamit,IN,2021-06-03 22:18:58,23.9333,92.4833,68.56,98,86,2.35,overcast clouds
557,Panji,ID,2021-06-03 22:18:59,-7.7253,114.0995,74.91,80,51,4.83,broken clouds
558,Watsa,CD,2021-06-03 22:19:01,3.0372,29.5355,62.04,98,82,3.11,broken clouds
559,Azare,NG,2021-06-03 22:19:02,11.6765,10.1948,91.13,30,7,15.37,clear sky
560,Sarkand,KZ,2021-06-03 22:19:04,45.41,79.9186,69.75,42,70,8.95,moderate rain
561,Truro,GB,2021-06-03 22:15:09,50.2653,-5.0544,51.84,91,4,4.72,clear sky
562,Freeport,US,2021-06-03 22:15:11,40.6576,-73.5832,76.24,91,90,1.01,overcast clouds
563,Kalevala,RU,2021-06-03 22:19:13,65.2,31.1667,60.04,60,17,4.0,few clouds
564,Haapsalu,EE,2021-06-03 22:19:15,58.9431,23.5414,56.01,76,72,7.09,broken clouds
565,Viedma,AR,2021-06-03 22:19:16,-40.8135,-62.9967,57.51,69,100,10.69,overcast clouds
566,Bamiantong,CN,2021-06-03 22:19:17,44.9333,130.5333,51.19,81,4,5.46,clear sky
567,Fairbanks,US,2021-06-03 22:19:19,64.8378,-147.7164,69.76,30,75,3.44,broken clouds
568,Taonan,CN,2021-06-03 22:19:21,45.3333,122.7833,55.9,67,100,6.15,overcast clouds
569,Walvis Bay,NA,2021-06-03 22:19:19,-22.9575,14.5053,75.09,11,0,10.4,clear sky
570,Lazaro Cardenas,MX,2021-06-03 22:19:24,17.9583,-102.2,88.32,56,42,9.64,scattered clouds
571,Springdale,US,2021-06-03 22:18:30,36.1867,-94.1288,80.42,54,75,4.0,broken clouds
572,Severo-Yeniseyskiy,RU,2021-06-03 22:19:29,60.3725,93.0408,41.59,82,98,2.95,overcast clouds
573,Hervey Bay,AU,2021-06-03 22:19:30,-25.2986,152.8535,66.04,88,100,1.01,overcast clouds
574,Gondar,ET,2021-06-03 22:19:31,12.6,37.4667,62.64,55,84,2.21,broken clouds
575,Stephenville,US,2021-06-03 22:19:33,32.2207,-98.2023,81.95,68,40,10.36,scattered clouds
576,Olutanga,PH,2021-06-03 22:19:34,7.3106,122.8464,82.56,75,93,1.97,overcast clouds
577,Nhulunbuy,AU,2021-06-03 22:19:36,-12.2333,136.7667,75.81,83,63,5.75,broken clouds
578,San Policarpo,PH,2021-06-03 22:19:38,12.1791,125.5072,80.08,80,100,3.13,overcast clouds
579,Princeton,US,2021-06-03 22:19:39,25.5384,-80.4089,84.0,83,97,1.99,light rain
580,Vestmannaeyjar,IS,2021-06-03 22:19:09,63.4427,-20.2734,48.67,82,100,25.43,moderate rain
581,Dali,CN,2021-06-03 22:19:42,25.7,100.1833,61.02,91,24,4.23,few clouds
582,Emerald,AU,2021-06-03 22:19:44,-23.5333,148.1667,64.54,82,90,5.75,overcast clouds
583,Kyzyl-Suu,KG,2021-06-03 22:19:45,42.3414,78.0056,56.23,65,89,4.79,overcast clouds
584,Shaoyang,CN,2021-06-03 22:19:47,27.2315,111.4525,64.0,88,100,2.64,overcast clouds
585,Hovd,MN,2021-06-03 22:19:48,48.0056,91.6419,63.03,46,96,5.82,overcast clouds
586,Hammerfest,NO,2021-06-03 22:19:51,70.6634,23.6821,50.45,71,0,0.0,clear sky
587,Zonguldak,TR,2021-06-03 22:19:52,41.25,31.8333,49.41,95,100,5.32,overcast clouds
588,Jiayuguan,CN,2021-06-03 22:19:53,39.8167,98.3,61.32,11,1,3.94,clear sky
589,Lumeje,AO,2021-06-03 22:19:55,-11.55,20.7833,59.65,52,3,6.13,clear sky
590,Desterro,BR,2021-06-03 22:19:56,-7.2906,-37.0939,75.4,60,61,13.2,broken clouds
591,Namatanai,PG,2021-06-03 22:19:57,-3.6667,152.4333,81.03,79,99,2.62,light rain
592,Salamiyah,SY,2021-06-03 22:19:59,35.0113,37.0532,61.83,73,0,6.76,clear sky
593,San Andres,CO,2021-06-03 22:20:00,12.5847,-81.7006,86.02,66,20,10.36,few clouds
594,Lima,PE,2021-06-03 22:17:32,-12.0432,-77.0282,64.9,77,90,6.91,overcast clouds
595,Kailua,US,2021-06-03 22:20:02,21.4022,-157.7394,87.78,54,40,11.5,scattered clouds
596,Keetmanshoop,NA,2021-06-03 22:20:04,-26.5833,18.1333,52.72,50,0,6.91,clear sky
597,Tamiahua,MX,2021-06-03 22:20:05,21.2667,-97.45,85.64,62,44,10.98,scattered clouds
598,Vanersborg,SE,2021-06-03 22:20:06,58.3807,12.3234,60.75,76,62,3.44,broken clouds
599,Meridian,US,2021-06-03 22:17:17,43.6121,-116.3915,101.71,19,1,1.88,clear sky
600,Devils Lake,US,2021-06-03 22:17:32,48.1128,-98.8651,92.95,24,1,7.0,clear sky
601,Ushibuka,JP,2021-06-03 22:20:10,32.1906,130.0228,70.25,98,100,13.56,light rain
602,Voznesenye,RU,2021-06-03 22:19:12,61.0106,35.4781,48.54,81,0,1.54,clear sky
603,Gat,IL,2021-06-03 22:20:13,31.61,34.7642,68.68,70,29,2.62,scattered clouds
604,Loja,EC,2021-06-03 22:20:15,-3.9931,-79.2042,65.43,72,25,4.63,light rain
605,Parabel,RU,2021-06-03 22:20:17,58.6978,81.4825,43.3,59,82,5.08,broken clouds
606,Miraflores,MX,2021-06-03 22:20:18,19.2167,-98.8083,70.45,74,99,4.54,overcast clouds
607,Stuttgart,DE,2021-06-03 22:20:20,48.7823,9.177,67.68,83,0,2.33,clear sky
608,Paeroa,NZ,2021-06-03 22:20:21,-37.3667,175.6667,54.07,82,45,1.34,scattered clouds
609,Necochea,AR,2021-06-03 22:20:22,-38.5473,-58.7368,53.04,77,85,15.08,overcast clouds
610,Wolomin,PL,2021-06-03 22:20:24,52.3401,21.2421,65.26,78,100,4.74,overcast clouds
611,Margate,GB,2021-06-03 22:19:26,51.3813,1.3862,63.91,76,25,1.99,scattered clouds
612,Egvekinot,RU,2021-06-03 22:20:26,66.3167,-179.1667,29.53,66,19,2.51,few clouds
613,San Cristobal,VE,2021-06-03 22:20:28,7.7669,-72.225,75.38,70,80,4.38,broken clouds
614,Balabac,PH,2021-06-03 22:20:29,7.9868,117.0645,82.4,82,100,9.44,overcast clouds
615,Morondava,MG,2021-06-03 22:20:33,-20.2833,44.2833,69.67,86,28,8.16,scattered clouds
616,Igarka,RU,2021-06-03 22:18:02,67.4667,86.5833,32.94,98,100,12.73,light snow
617,Grover Beach,US,2021-06-03 22:20:37,35.1216,-120.6213,95.18,58,1,7.49,clear sky
618,Alugan,PH,2021-06-03 22:20:38,12.2188,125.4808,79.75,81,100,2.77,overcast clouds
619,Harlingen,US,2021-06-03 22:16:20,26.1906,-97.6961,87.75,70,75,8.05,broken clouds
620,Esik,KZ,2021-06-03 22:20:41,43.3552,77.4525,60.22,50,100,6.2,overcast clouds
621,Santa Maria,BR,2021-06-03 22:18:15,-29.6842,-53.8069,58.3,88,0,5.12,clear sky
622,Conde,BR,2021-06-03 22:20:43,-7.2597,-34.9075,76.46,83,20,8.28,few clouds
623,Champerico,GT,2021-06-03 22:20:45,14.3,-91.9167,90.14,65,8,6.44,clear sky
624,Urucui,BR,2021-06-03 22:20:46,-7.2294,-44.5561,80.67,53,60,3.49,broken clouds
625,Santa Clara,CU,2021-06-03 22:17:41,22.4,-79.9667,87.46,62,40,12.84,scattered clouds
626,Ostersund,SE,2021-06-03 22:20:49,63.1792,14.6357,59.61,47,34,10.36,scattered clouds
627,Vanimo,PG,2021-06-03 22:20:50,-2.6741,141.3028,78.71,87,86,2.48,overcast clouds
628,Boende,CD,2021-06-03 22:20:51,-0.2167,20.8667,72.52,88,26,2.13,scattered clouds
629,Sorong,ID,2021-06-03 22:20:53,-0.8833,131.25,78.15,87,100,7.49,moderate rain
630,Pavilosta,LV,2021-06-03 22:20:54,56.8879,21.1859,53.55,70,99,6.49,overcast clouds
631,Garowe,SO,2021-06-03 22:20:56,8.4054,48.4845,80.04,63,91,18.39,overcast clouds
632,Davila,PH,2021-06-03 22:20:57,18.4726,120.5763,80.58,75,79,18.32,broken clouds
633,Haines Junction,CA,2021-06-03 22:20:58,60.7522,-137.5108,53.35,41,50,15.19,scattered clouds
634,Rong Kwang,TH,2021-06-03 22:21:00,18.339,100.3174,76.77,88,99,2.26,overcast clouds
635,Bethanien,NA,2021-06-03 22:21:01,-26.502,17.1583,52.47,52,0,7.61,clear sky
636,Sechura,PE,2021-06-03 22:21:04,-5.5569,-80.8222,75.11,64,7,15.9,clear sky
637,Gigmoto,PH,2021-06-03 22:21:06,13.7796,124.39,81.34,83,97,2.62,overcast clouds
638,Tokmak,UA,2021-06-03 22:21:08,47.2514,35.7058,54.46,94,100,9.4,overcast clouds
639,Hasaki,JP,2021-06-03 22:21:11,35.7333,140.8333,70.09,83,100,25.77,overcast clouds
640,Machalpur,IN,2021-06-03 22:21:12,24.1333,76.3,88.09,38,86,7.23,overcast clouds
641,Alakurtti,RU,2021-06-03 22:21:13,66.9672,30.3491,55.63,56,95,4.54,overcast clouds
642,Pedernales,DO,2021-06-03 22:21:15,18.0384,-71.744,85.93,56,100,12.39,overcast clouds
643,Aras,ES,2021-06-03 22:17:28,42.5617,-2.356,57.72,89,40,5.35,scattered clouds
644,Ayagoz,KZ,2021-06-03 22:21:17,47.9714,80.4392,65.5,54,42,9.66,scattered clouds
645,Tomohon,ID,2021-06-03 22:21:19,1.3346,124.8392,68.94,84,94,2.57,overcast clouds
646,Esso,RU,2021-06-03 22:21:20,55.9333,158.7,50.04,79,100,5.26,overcast clouds
647,Olkhovatka,RU,2021-06-03 22:21:22,50.2831,39.2872,54.28,96,100,10.0,light rain
648,Novoagansk,RU,2021-06-03 22:21:18,61.9449,76.6625,36.21,76,99,6.58,overcast clouds
649,Maceio,BR,2021-06-03 22:21:24,-9.6658,-35.7353,74.64,94,20,4.99,few clouds
650,Portland,US,2021-06-03 22:20:58,45.5234,-122.6762,86.36,50,20,1.01,few clouds
651,Tabas,IR,2021-06-03 22:21:28,33.5959,56.9244,94.08,7,0,2.55,clear sky
652,Sabang,ID,2021-06-03 22:21:29,5.8933,95.3214,82.29,78,84,12.01,broken clouds
653,Nizwa,OM,2021-06-03 22:21:31,22.9333,57.5333,90.86,22,0,4.16,clear sky
654,Obuasi,GH,2021-06-03 22:21:32,6.206,-1.6619,74.62,96,45,3.67,scattered clouds
655,Porto De Moz,BR,2021-06-03 22:21:34,-1.7483,-52.2383,75.72,94,47,1.66,light rain
656,Supaul,IN,2021-06-03 22:21:35,26.1167,86.6,84.56,52,0,4.45,clear sky
657,Medicina,IT,2021-06-03 22:21:37,44.4787,11.6381,70.43,63,19,4.59,few clouds
658,Mocuba,MZ,2021-06-03 22:21:39,-16.8392,36.9856,67.48,98,99,2.86,light rain
659,Madang,PG,2021-06-03 22:21:40,-5.2246,145.7966,77.65,90,67,3.33,broken clouds
660,Kabare,CD,2021-06-03 22:21:41,-2.4683,28.8242,60.26,95,100,1.63,overcast clouds
661,Tondano,ID,2021-06-03 22:21:43,1.3038,124.9112,69.89,87,94,2.28,overcast clouds
662,Evora,PT,2021-06-03 22:21:16,38.5667,-7.9,58.14,66,3,14.25,clear sky
663,Ostrovnoy,RU,2021-06-03 22:21:45,68.0531,39.5131,61.57,57,27,17.72,scattered clouds
664,Wakkanai,JP,2021-06-03 22:21:47,45.4094,141.6739,54.34,85,100,5.37,moderate rain
665,Kontagora,NG,2021-06-03 22:21:48,10.3999,5.4695,74.7,82,52,13.51,light rain
666,Ilinskiy,RU,2021-06-03 22:21:49,55.619,38.1182,58.51,66,0,6.71,clear sky
667,Heiligenhafen,DE,2021-06-03 22:21:51,54.3667,10.9833,64.87,94,100,13.11,moderate rain
668,Pochutla,MX,2021-06-03 22:21:52,15.7432,-96.4661,86.85,58,76,4.68,broken clouds
669,Wufeng,CN,2021-06-03 22:21:53,27.45,104.8333,51.21,59,100,3.8,overcast clouds
670,Port Hawkesbury,CA,2021-06-03 22:21:55,45.6169,-61.3485,71.1,66,75,6.91,broken clouds
671,Turan,VN,2021-06-03 22:21:56,16.0678,108.2208,86.05,74,20,1.14,few clouds
672,San Buenaventura,MX,2021-06-03 22:21:57,27.0833,-101.5333,87.48,47,63,8.41,broken clouds
673,Ouadda,CF,2021-06-03 22:21:59,8.0777,22.4007,69.06,92,100,3.18,overcast clouds
674,Lakatoro,VU,2021-06-03 22:22:00,-16.0999,167.4164,78.19,69,30,6.44,scattered clouds
675,Potosi,BO,2021-06-03 22:22:01,-19.5836,-65.7531,46.76,38,26,5.55,scattered clouds
676,Helong,CN,2021-06-03 22:22:03,42.5397,128.9972,55.67,67,26,7.29,scattered clouds
677,Jiuquan,CN,2021-06-03 22:22:04,39.7432,98.5174,59.7,13,0,1.74,clear sky
678,Yerbogachen,RU,2021-06-03 22:22:05,61.2767,108.0108,59.81,65,62,3.27,broken clouds
679,Elliot Lake,CA,2021-06-03 22:22:07,46.3834,-82.6331,60.89,70,99,7.54,overcast clouds
680,Menomonie,US,2021-06-03 22:22:08,44.8755,-91.9193,87.37,34,1,4.61,clear sky
